{"type":"FeatureCollection","features":[{"type":"Feature","properties":{"name":"Pimicikamak"},"geometry":{"coordinates":[-97.7641745502598,54.65648726993142],"type":"Point"}},{"type":"Feature","properties":{"name":"Winnipeg"},"geometry":{"coordinates":[-97.14735886732254,49.87844913971455],"type":"Point"}},{"type":"Feature","properties":{"name":"Calgary"},"geometry":{"coordinates":[-114.07140223029832,51.0427042378635],"type":"Point"}},{"type":"Feature","properties":{"name":"Red Deer"},"geometry":{"coordinates":[-113.80879531340301,52.27472089979815],"type":"Point"}},{"type":"Feature","properties":{"name":"Lethbridge"},"geometry":{"coordinates":[-112.84215485044342,49.69699581445343],"type":"Point"}}]}